{"version": 0.6, "generator": "Overpass API 0.7.62.11 87bfad18", "osm3s": {"timestamp_osm_base": "2026-07-11T17:37:11Z", "copyright": "The data included in this document is from www.openstreetmap.org. The data is made available under ODbL."}, "elements": [{"type": "node", "id": 290603024, "lat": 12.867346, "lon": 74.8435976}, {"type": "node", "id": 291216395, "lat": 12.8722889, "lon": 74.8485495}, {"type": "node", "id": 291216396, "lat": 12.872176, "lon": 74.8484522}, {"type": "node", "id": 291216397, "lat": 12.8715173, "lon": 74.8489014}, {"type": "node", "id": 291216398, "lat": 12.8715155, "lon": 74.8492204}, {"type": "node", "id": 291216399, "lat": 12.8720024, "lon": 74.8492109}, {"type": "node", "id": 291216400, "lat": 12.8723704, "lon": 74.849092}, {"type": "node", "id": 291216401, "lat": 12.8724639, "lon": 74.8490044}, {"type": "node", "id": 308214432, "lat": 12.8663995, "lon": 74.854664, "tags": {"addr:district": "Dakshina Kannada", "addr:full": "Highlands, Kankanady, Mangalore", "addr:postcode": "575002", "addr:state": "Karnataka", "amenity": "hospital", "emergency": "yes", "helipad": "no", "name": "Highland Hospital", "source": "OpenGovernmentData"}}, {"type": "node", "id": 1453410050, "lat": 12.8663274, "lon": 74.8417694}, {"type": "node", "id": 1453410126, "lat": 12.8668922, "lon": 74.8414315}, {"type": "node", "id": 1453410144, "lat": 12.8676247, "lon": 74.8421533}, {"type": "node", "id": 1453410154, "lat": 12.8676874, "lon": 74.8422444}, {"type": "node", "id": 1453410159, "lat": 12.8677711, "lon": 74.8425395}, {"type": "node", "id": 1453410164, "lat": 12.8677193, "lon": 74.8428092}, {"type": "node", "id": 1453410186, "lat": 12.8663582, "lon": 74.8430136}, {"type": "node", "id": 1453410188, "lat": 12.8666801, "lon": 74.8444188}, {"type": "node", "id": 1453410201, "lat": 12.866113, "lon": 74.8423649}, {"type": "node", "id": 1699693038, "lat": 12.8796103, "lon": 74.8531752, "tags": {"addr:district": "Dakshina Kannada", "addr:full": "Pound Garden, Kadri, Manglore", "addr:postcode": "575002", "addr:state": "Karnataka", "amenity": "hospital", "emergency": "yes", "name": "City Hospital Research and Diagnostic Center", "source": "OpenGovernmentData"}}, {"type": "node", "id": 1699731456, "lat": 12.867708, "lon": 74.8534438, "tags": {"amenity": "hospital", "emergency": "no", "name": "Medicity Polyclinic"}}, {"type": "node", "id": 1722215777, "lat": 12.8658618, "lon": 74.859386}, {"type": "node", "id": 1722215778, "lat": 12.8659846, "lon": 74.8602014}, {"type": "node", "id": 1722215779, "lat": 12.8665869, "lon": 74.8601233}, {"type": "node", "id": 1722215780, "lat": 12.86622, "lon": 74.8590024}, {"type": "node", "id": 1722215781, "lat": 12.8664292, "lon": 74.8589729}, {"type": "node", "id": 1722215782, "lat": 12.8662618, "lon": 74.8593028}, {"type": "node", "id": 1723170206, "lat": 12.8775774, "lon": 74.8526769}, {"type": "node", "id": 1723170209, "lat": 12.8776715, "lon": 74.8523872}, {"type": "node", "id": 1723170212, "lat": 12.877526, "lon": 74.852412}, {"type": "node", "id": 1723170215, "lat": 12.8777186, "lon": 74.8526501}, {"type": "node", "id": 1739454181, "lat": 12.879929, "lon": 74.8534554}, {"type": "node", "id": 1739454182, "lat": 12.8800451, "lon": 74.8533223}, {"type": "node", "id": 1739454184, "lat": 12.880082, "lon": 74.8535958}, {"type": "node", "id": 1739454185, "lat": 12.8801981, "lon": 74.8534627}, {"type": "node", "id": 1741586805, "lat": 12.8584773, "lon": 74.8480537}, {"type": "node", "id": 1741586806, "lat": 12.8595233, "lon": 74.8481262}, {"type": "node", "id": 1741586807, "lat": 12.8585597, "lon": 74.847461}, {"type": "node", "id": 1741586808, "lat": 12.8593533, "lon": 74.8482737}, {"type": "node", "id": 1741586809, "lat": 12.8581426, "lon": 74.8471659}, {"type": "node", "id": 1741586810, "lat": 12.8576928, "lon": 74.8477721}, {"type": "node", "id": 1741586811, "lat": 12.859131, "lon": 74.8485365}, {"type": "node", "id": 1741586812, "lat": 12.8585871, "lon": 74.8473778}, {"type": "node", "id": 1741586813, "lat": 12.8583557, "lon": 74.8480886}, {"type": "node", "id": 1741586814, "lat": 12.8583034, "lon": 74.8480993}, {"type": "node", "id": 1952655950, "lat": 12.8741767, "lon": 74.8603356}, {"type": "node", "id": 1952655952, "lat": 12.8733141, "lon": 74.8617402}, {"type": "node", "id": 1952655970, "lat": 12.8740794, "lon": 74.862058}, {"type": "node", "id": 1952655984, "lat": 12.8736314, "lon": 74.8614444}, {"type": "node", "id": 1952655987, "lat": 12.8737584, "lon": 74.8621327}, {"type": "node", "id": 1952656053, "lat": 12.8748226, "lon": 74.8616161}, {"type": "node", "id": 1952656080, "lat": 12.8750355, "lon": 74.8601026}, {"type": "node", "id": 1952656199, "lat": 12.8734229, "lon": 74.8616558}, {"type": "node", "id": 1952656218, "lat": 12.8744642, "lon": 74.8620306}, {"type": "node", "id": 1952656228, "lat": 12.8734152, "lon": 74.8619008}, {"type": "node", "id": 1952656288, "lat": 12.8739195, "lon": 74.8608662}, {"type": "node", "id": 1952656291, "lat": 12.8736276, "lon": 74.8621327}, {"type": "node", "id": 1952656303, "lat": 12.8735021, "lon": 74.86202}, {"type": "node", "id": 1952656304, "lat": 12.8747066, "lon": 74.8620781}, {"type": "node", "id": 1952656306, "lat": 12.8749533, "lon": 74.8609978}, {"type": "node", "id": 1952656310, "lat": 12.8742284, "lon": 74.8601623}, {"type": "node", "id": 2252679761, "lat": 12.8794012, "lon": 74.8464846}, {"type": "node", "id": 2252679763, "lat": 12.8792731, "lon": 74.8467555}, {"type": "node", "id": 2252679765, "lat": 12.8789123, "lon": 74.8466616}, {"type": "node", "id": 2252679767, "lat": 12.878826, "lon": 74.8466509}, {"type": "node", "id": 2252679770, "lat": 12.8793071, "lon": 74.8465168}, {"type": "node", "id": 2252679772, "lat": 12.8790012, "lon": 74.8463853}, {"type": "node", "id": 2252679774, "lat": 12.8789312, "lon": 74.846294}, {"type": "node", "id": 2252679776, "lat": 12.8792051, "lon": 74.8467394}, {"type": "node", "id": 2280989014, "lat": 12.8680582, "lon": 74.8500681, "tags": {"amenity": "hospital", "emergency": "yes", "name": "Indira Hospital", "name:kn": "\u0c87\u0c82\u0ca6\u0cbf\u0cb0\u0cbe \u0c86\u0cb8\u0ccd\u0caa\u0ca4\u0ccd\u0cb0\u0cc6"}}, {"type": "node", "id": 2281265308, "lat": 12.886325, "lon": 74.8382235, "tags": {"amenity": "hospital", "name": "Prasad Netralaya", "name:kn": "\u0caa\u0ccd\u0cb0\u0cb8\u0cbe\u0ca6 \u0ca8\u0cc7\u0ca4\u0ccd\u0cb0\u0cbe\u0cb2\u0caf"}}, {"type": "node", "id": 2284147517, "lat": 12.8730108, "lon": 74.8566689}, {"type": "node", "id": 2284147518, "lat": 12.8728438, "lon": 74.8562124}, {"type": "node", "id": 2284147520, "lat": 12.8725421, "lon": 74.8567541}, {"type": "node", "id": 2284147525, "lat": 12.8725734, "lon": 74.856805}, {"type": "node", "id": 2284147528, "lat": 12.8723492, "lon": 74.8563792}, {"type": "node", "id": 2284149597, "lat": 12.8676644, "lon": 74.8431491}, {"type": "node", "id": 2284149599, "lat": 12.8673836, "lon": 74.8435283}, {"type": "node", "id": 2284149601, "lat": 12.866939, "lon": 74.8441267}, {"type": "node", "id": 2284149605, "lat": 12.8668143, "lon": 74.844326}, {"type": "node", "id": 2284151457, "lat": 12.864999, "lon": 74.838717}, {"type": "node", "id": 2284151459, "lat": 12.8647218, "lon": 74.8372686}, {"type": "node", "id": 2284151460, "lat": 12.8647106, "lon": 74.8379625}, {"type": "node", "id": 2284151461, "lat": 12.8651873, "lon": 74.8372257}, {"type": "node", "id": 2284151463, "lat": 12.8656214, "lon": 74.8372525}, {"type": "node", "id": 2284151467, "lat": 12.8647532, "lon": 74.8381269}, {"type": "node", "id": 2284151471, "lat": 12.8657199, "lon": 74.8385687}, {"type": "node", "id": 2284151475, "lat": 12.8649198, "lon": 74.8387189}, {"type": "node", "id": 2284151479, "lat": 12.8648526, "lon": 74.8386902}, {"type": "node", "id": 2284151482, "lat": 12.8643819, "lon": 74.8373813}, {"type": "node", "id": 2470697962, "lat": 12.8741665, "lon": 74.8549175}, {"type": "node", "id": 2470697965, "lat": 12.8741901, "lon": 74.8549416}, {"type": "node", "id": 2470697974, "lat": 12.8746372, "lon": 74.8547351}, {"type": "node", "id": 2470697980, "lat": 12.8746032, "lon": 74.8553869}, {"type": "node", "id": 2470697982, "lat": 12.8743443, "lon": 74.8554298}, {"type": "node", "id": 2470697986, "lat": 12.874245, "lon": 74.8554486}, {"type": "node", "id": 2470698000, "lat": 12.8749009, "lon": 74.8552132}, {"type": "node", "id": 2470698005, "lat": 12.8740641, "lon": 74.8549664}, {"type": "node", "id": 3362118065, "lat": 12.8582191, "lon": 74.8495331, "tags": {"amenity": "hospital", "name": "Urban Health Centre", "name:kn": "\u0c97\u0ccd\u0cb0\u0cbe\u0cae\u0c82\u0ca4\u0cbe\u0cb0 \u0c86\u0cb0\u0ccb\u0c97\u0ccd\u0caf \u0c95\u0cc7\u0c82\u0ca6\u0ccd\u0cb0"}}, {"type": "node", "id": 3836788508, "lat": 12.883022, "lon": 74.8391543}, {"type": "node", "id": 3836788510, "lat": 12.8832787, "lon": 74.8387947}, {"type": "node", "id": 3836788512, "lat": 12.8831428, "lon": 74.8388162}, {"type": "node", "id": 3836788514, "lat": 12.8832918, "lon": 74.839138}, {"type": "node", "id": 3836788516, "lat": 12.8831035, "lon": 74.8385453}, {"type": "node", "id": 3836788518, "lat": 12.8829284, "lon": 74.8385775}, {"type": "node", "id": 6937963277, "lat": 12.8793959, "lon": 74.8361099, "tags": {"addr:district": "Dakshina Kannada", "addr:full": "New Mannagudda Road, West Kodial Guthu ,Mangalore", "addr:postcode": "575003", "addr:state": "Karnataka", "amenity": "hospital", "name": "Vishal Children and Maternity Hospital", "source": "OpenGovernmentData"}}, {"type": "node", "id": 6938770601, "lat": 12.8803686, "lon": 74.8537695, "tags": {"addr:district": "Dakshina Kannada", "addr:full": "Kadri Temple Road, Mangalore", "addr:postcode": "575002", "addr:state": "Karnataka", "amenity": "hospital", "name": "Tejaswini Hospital", "name:kn": "\u0ca4\u0cc7\u0c9c\u0cb8\u0ccd\u0cb5\u0cbf\u0ca8\u0cbf \u0c86\u0cb8\u0ccd\u0caa\u0ca4\u0ccd\u0cb0\u0cc6", "source": "OpenGovernmentData"}}, {"type": "node", "id": 6938880545, "lat": 12.8760085, "lon": 74.8480497, "tags": {"addr:district": "Dakshina Kannada", "addr:full": "Bunts Hostel Road, Mangalore", "addr:postcode": "575003", "addr:state": "Karnataka", "amenity": "hospital", "name": "Vijaya Clinic General Hospital", "source": "OpenGovernmentData"}}, {"type": "node", "id": 6938916238, "lat": 12.8760713, "lon": 74.8451892, "tags": {"addr:district": "Dakshina Kannada", "addr:full": "Brigade Plaza, Krr Road, Opp: St. Aloysius School, Karangalpady, Mangalore", "addr:postcode": "575003", "addr:state": "Karnataka", "amenity": "hospital", "name": "Nayana Nethralaya Eye Hospital", "source": "OpenGovernmentData"}}, {"type": "node", "id": 6938918913, "lat": 12.8790416, "lon": 74.8519879, "tags": {"addr:district": "Dakshina Kannada", "addr:full": "Oop.Syndicate Bank Kadri Road ,Mangalore", "addr:postcode": "575003", "addr:state": "Karnataka", "amenity": "hospital", "name": "Prathiba Eye Hospital", "source": "OpenGovernmentData"}}, {"type": "node", "id": 6938935958, "lat": 12.8676634, "lon": 74.8519135, "tags": {"addr:district": "Dakshina Kannada", "addr:full": "Westgate Pride,Opposite Bharath Petrol Pump, Falnir, Mangalore", "addr:postcode": "575002", "addr:state": "Karnataka", "amenity": "hospital", "name": "Sanjeevini Day Care", "source": "OpenGovernmentData"}}, {"type": "node", "id": 6939003557, "lat": 12.8795933, "lon": 74.8298161, "tags": {"addr:district": "Dakshina Kannada", "addr:full": "Opp:Professional Couriers, Mannagudda New Road, Bockapatna, Mangalore", "addr:postcode": "575003", "addr:state": "Karnataka", "amenity": "hospital", "name": "Spandana Hospital And Institute Of Neuro Sciences", "source": "OpenGovernmentData"}}, {"type": "node", "id": 6947499726, "lat": 12.8609405, "lon": 74.8395471, "tags": {"addr:district": "Dakshina Kannada", "addr:full": "A.B. Shetty Circle", "addr:postcode": "575001", "addr:state": "Karnataka", "amenity": "hospital", "name": "Dr. M. V. Shettys Hospital", "source": "OpenGovernmentData"}}, {"type": "node", "id": 6950343663, "lat": 12.8717224, "lon": 74.8484812, "tags": {"addr:district": "Dakshina Kannada", "addr:full": "B. R. Ambedker Circle, Opposite To Jyothi Takie,Balmatta Road", "addr:postcode": "575001", "addr:state": "Karnataka", "amenity": "hospital", "name": "K. M. C. Hospital", "source": "OpenGovernmentData"}}, {"type": "node", "id": 7213485807, "lat": 12.8796917, "lon": 74.8471767, "tags": {"addr:district": "Kadri, Mangalore", "addr:full": "Mallikatte, Kadri, Mangalore, Karnataka", "addr:postcode": "575003", "addr:state": "Karnataka", "amenity": "hospital", "name": "MIO Hospital", "source": "OpenGovernmentData"}}, {"type": "node", "id": 8188036082, "lat": 12.8696279, "lon": 74.8399039, "tags": {"addr:full": "G.H.S.Road, Bhavathi, Bunder, Mangalore, Karnataka", "addr:state": "Karnataka", "amenity": "hospital", "name": "Tara Hospital", "name:kn": "\u0ca4\u0cbe\u0cb0\u0cbe \u0c86\u0cb8\u0ccd\u0caa\u0ca4\u0ccd\u0cb0\u0cc6"}}, {"type": "node", "id": 11151324801, "lat": 12.8742796, "lon": 74.8620088}, {"type": "node", "id": 11151324805, "lat": 12.8746319, "lon": 74.8601331}, {"type": "node", "id": 11151324806, "lat": 12.8735306, "lon": 74.8615696}, {"type": "node", "id": 12624734474, "lat": 12.8678722, "lon": 74.8528843, "tags": {"amenity": "hospital", "healthcare": "hospital", "name": "Parijma Institute of Neuro Sciences (PINS)"}}, {"type": "node", "id": 12946966938, "lat": 12.8647062, "lon": 74.8379354}, {"type": "node", "id": 12946966939, "lat": 12.8647203, "lon": 74.8379865}, {"type": "node", "id": 13055504366, "lat": 12.8676282, "lon": 74.8542088, "tags": {"amenity": "hospital", "healthcare": "hospital", "name": "Unity Hospital"}}, {"type": "way", "id": 26564971, "nodes": [291216395, 291216396, 291216397, 291216398, 291216399, 291216400, 291216401, 291216395], "tags": {"addr:district": "Dakshina Kannada", "addr:full": "Attavar", "addr:postcode": "575001", "addr:state": "Karnataka", "amenity": "hospital", "name": "University Medical Center (KMC)", "operator:type": "private", "source": "OpenGovernmentData", "website": "https://www.kmchospitalsmangalore.com/"}}, {"type": "way", "id": 132058594, "nodes": [1453410126, 1453410144, 1453410154, 1453410159, 1453410164, 2284149597, 2284149599, 290603024, 2284149601, 2284149605, 1453410188, 1453410186, 1453410201, 1453410050, 1453410126], "tags": {"addr:district": "Dakshina Kannada", "addr:full": "Balmatta Road, Mangalore", "addr:postcode": "575001", "addr:state": "Karnataka", "addr:subdistrict": "Mangalore", "amenity": "hospital", "description": "District Hospital", "emergency": "yes", "name": "Government Wenlock Hospital , Mangalore", "name:etymology:wikidata": "Q4881236", "name:kn": "\u0cb5\u0cc6\u0ca8\u0ccd\u0cb2\u0cbe\u0c95\u0ccd \u0c9c\u0cbf\u0cb2\u0ccd\u0cb2\u0cbe \u0c86\u0cb8\u0ccd\u0caa\u0ca4\u0ccd\u0cb0\u0cc6", "source": "OpenGovernmentData"}}, {"type": "way", "id": 160151297, "nodes": [1722215781, 1722215779, 1722215778, 1722215777, 1722215782, 1722215780, 1722215781], "tags": {"addr:district": "Dakshina Kannada", "addr:full": "Fr Muller Road Kankanady Mangalore", "addr:postcode": "575002", "addr:state": "Karnataka", "amenity": "hospital", "emergency": "yes", "name": "Father Muller Hospital", "name:etymology:wikidata": "Q4821499", "name:kn": "\u0cab\u0cbe\u0ca6\u0cb0\u0ccd \u0cae\u0cc1\u0cb2\u0ccd\u0cb2\u0cb0\u0ccd \u0c86\u0cb8\u0ccd\u0caa\u0ca4\u0ccd\u0cb0\u0cc6", "source": "OpenGovernmentData"}}, {"type": "way", "id": 160262590, "nodes": [1723170209, 1723170215, 1723170206, 1723170212, 1723170209], "tags": {"addr:district": "Dakshina Kannada", "addr:full": "Vajra Hills, Kadri Road, Mangalore", "addr:postcode": "575003", "addr:state": "Karnataka", "amenity": "hospital", "building": "yes", "emergency": "yes", "name": "Mangala Kidney Foundation", "source": "OpenGovernmentData"}}, {"type": "way", "id": 162001272, "nodes": [1739454185, 1739454182, 1739454181, 1739454184, 1739454185], "tags": {"amenity": "hospital", "building": "yes", "healthcare": "hospital", "name": "Tejaswini Hospital", "name:kn": "\u0ca4\u0cc7\u0c9c\u0cb8\u0ccd\u0cb5\u0cbf\u0ca8\u0cbf \u0c86\u0cb8\u0ccd\u0caa\u0ca4\u0ccd\u0cb0\u0cc6"}}, {"type": "way", "id": 162235345, "nodes": [1741586806, 1741586808, 1741586811, 1741586805, 1741586813, 1741586814, 1741586810, 1741586809, 1741586812, 1741586807, 1741586806], "tags": {"addr:district": "Dakshina Kannada", "addr:full": "Ambedkar (Jyothi) Circle", "addr:postcode": "575001", "addr:state": "Karnataka", "amenity": "hospital", "emergency": "yes", "healthcare:speciality": "multi speciality", "name": "KMC Hospital, Ambedkar Circle", "operator:type": "private", "source": "OpenGovernmentData", "website": "https://www.kmchospitalsmangalore.com/"}}, {"type": "way", "id": 184750305, "nodes": [1952656080, 1952656306, 1952656053, 1952656304, 1952656218, 11151324801, 1952655970, 1952655987, 1952656291, 1952656303, 1952656228, 1952655952, 1952656199, 11151324806, 1952655984, 1952656288, 1952655950, 1952656310, 11151324805, 1952656080], "tags": {"amenity": "hospital", "name": "ESI Hospital", "name:kn": "\u0c87\u0c8e\u0cb8\u0ccd\u0c90 \u0c86\u0cb8\u0ccd\u0caa\u0ca4\u0ccd\u0cb0\u0cc6"}}, {"type": "way", "id": 215833711, "nodes": [2252679763, 2252679761, 2252679774, 2252679767, 2252679765, 2252679772, 2252679770, 2252679776, 2252679763], "tags": {"addr:district": "Dakshina Kannada", "addr:full": "Post Box No - 717, Karangalpady, Manglore", "addr:postcode": "575003", "addr:state": "Karnataka", "amenity": "hospital", "emergency": "yes", "name": "Vinaya nursing home", "source": "OpenGovernmentData"}}, {"type": "way", "id": 219223242, "nodes": [2284147518, 2284147528, 2284147520, 2284147525, 2284147517, 2284147518], "tags": {"addr:district": "Dakshina Kannada", "addr:full": "15/23/1421, Bendore, Mangalore", "addr:postcode": "575002", "addr:state": "Karnataka", "amenity": "hospital", "name": "Colaco Hospital", "name:kn": "\u0c95\u0cca\u0cb2\u0cbe\u0c95\u0cca \u0c86\u0cb8\u0ccd\u0caa\u0ca4\u0ccd\u0cb0\u0cc6", "source": "OpenGovernmentData"}}, {"type": "way", "id": 219223674, "nodes": [2284151482, 12946966938, 2284151460, 12946966939, 2284151467, 2284151479, 2284151475, 2284151457, 2284151471, 2284151463, 2284151461, 2284151459, 2284151482], "tags": {"addr:district": "Dakshina Kannada", "addr:full": "Mangalore", "addr:postcode": "575001", "addr:state": "Karnataka", "addr:subdistrict": "Mangalore", "amenity": "hospital", "description": "District Hospital", "emergency": "yes", "name": "Lady Goshan Hospital Mangalore", "name:etymology:wikidata": "Q75263726", "operator:type": "government", "source": "OpenGovernmentData"}}, {"type": "way", "id": 239270568, "nodes": [2470697965, 2470697974, 2470698000, 2470697980, 2470697982, 2470697986, 2470698005, 2470697962, 2470697965], "tags": {"addr:district": "Dakshina Kannada", "addr:full": "Upper Bendoor D No: 15-3-149 To 15-3-151 Mangalore Mangalore", "addr:postcode": "575002", "addr:state": "Karnataka", "amenity": "hospital", "emergency": "yes", "name": "SCS Hospital", "source": "OpenGovernmentData"}}, {"type": "way", "id": 380340870, "nodes": [3836788510, 3836788512, 3836788516, 3836788518, 3836788508, 3836788514, 3836788510], "tags": {"addr:district": "Dakshina Kannada", "addr:full": "Ballai Bahg Mangalore", "addr:postcode": "575003", "addr:state": "Karnataka", "alt_name": "SDM Eye Hospital", "amenity": "hospital", "name": "Sri Dharmasthala Manjunatheshwara Eye Hospital", "source": "OpenGovernmentData"}}]}